Mc&vF&Ê∆cFfÊFÜVV∆ÊcÜÜFÊ&6&&∆vçÊfÜ∆&vFÊVV∆&V&6∆∆∆Sv6k
$GPGGA,002743.000,4006.4854,N,08814.2319,W,1,05,2.1,229.4,M,-33.9,M,,0000*60
$GPGLL,4006.4854,N,08814.2319,W,002743.000,A,A*4A
$GPGSA,A,3,22,12,14,25,31,,,,,,,,3.1,2.1,2.2*30
$GPRMC,002743.000,A,4006.4854,N,08814.2319,W,1.00,272.58,251213,,,A*70
$GPGGA,002744.000,4006.4854,N,08814.2315,W,1,05,2.1,229.4,M,-33.9,M,,0000*6B
$GPGLL,4006.4854,N,08814.2315,W,002744.000,A,A*41
$GPGSA,A,3,22,12,14,25,31,,,,,,,,3.1,2.1,2.2*30
$GPGSV,3,1,09,31,79,247,21,14,52,066,29,32,49,306,14,25,37,070,19*75
$GPGSV,3,2,09,22,28,149,28,01,24,284,,20,14,315,,12,13,037,29*7A
$GPGSV,3,3,09,11,10,259,*4F
$GPRMC,002744.000,A,4006.4854,N,08814.2315,W,0.88,275.01,251213,,,A*71
$GPGGA,002745.000,4006.4853,N,08814.2313,W,1,05,2.1,229.6,M,-33.9,M,,0000*69
$GPGLL,4006.4853,N,08814.2313,W,002745.000,A,A*41
$GPGSA,A,3,22,12,14,25,31,,,,,,,,3.1,2.1,2.2*30
$GPRMC,002745.000,A,4006.4853,N,08814.2313,W,1.08,274.49,251213,,,A*75
$GPGGA,002746.000,4006.4853,N,08814.2311,W,1,05,2.1,229.6,M,-33.9,M,,0000*68
$GPGLL,4006.4853,N,08814.2311,W,002746.000,A,A*40
$GPGSA,A,3,22,12,14,25,31,,,,,,,,3.1,2.1,2.2*30
$GPRMC,002746.000,A,4006.4853,N,08814.2311,W,1.24,274.84,251213,,,A*7B
$GPGGA,002747.000,4006.4852,N,08814.2314,W,1,05,2.1,229.5,M,-33.9,M,,0000*6E
$GPGLL,4006.4852,N,08814.2314,W,002747.000,A,A*45
$GPGSA,A,3,22,12,14,25,31,,,,,,,,3.1,2.1,2.2*30
$GPRMC,002747.000,A,4006.4852,N,08814.2314,W,1.36,276.11,251213,,,A*73
$GPGGA,002748.000,4006.4851,N,08814.2314,W,1,05,2.1,229.6,M,-33.9,M,,0000*61
$GPGLL,4006.4851,N,08814.2314,W,002748.000,A,A*49
$GPGSA,A,3,22,12,14,25,31,,,,,,,,3.1,2.1,2.2*30
$GPRMC,002748.000,A,4006.4851,N,08814.2314,W,1.20,277.00,251213,,,A*79
$GPGGA,002749.000,4006.4850,N,08814.2310,W,1,05,2.1,229.3,M,-33.9,M,,0000*60
$GPGLL,4006.4850,N,08814.2310,W,002749.000,A,A*4D
$GPGSA,A,3,22,12,14,25,31,,,,,,,,3.1,2.1,2.2*30
$GPGSV,3,1,09,31,79,247,21,14,52,066,30,32,49,306,14,25,37,070,20*77
$GPGSV,3,2,09,22,28,149,27,01,24,284,,20,14,315,,12,13,037,29*75
$GPGSV,3,3,09,11,10,259,*4F
$GPRMC,002749.000,A,4006.4850,N,08814.2310,W,1.10,274.99,251213,,,A*7D
$GPGGA,002750.000,4006.4849,N,08814.2302,W,1,05,2.1,228.9,M,-33.9,M,,0000*68
$GPGLL,4006.4849,N,08814.2302,W,002750.000,A,A*4E
$GPGSA,A,3,22,12,14,25,31,,,,,,,,3.1,2.1,2.2*30
$GPRMC,002750.000,A,4006.4849,N,08814.2302,W,1.25,275.52,251213,,,A*7E
$GPGGA,002751.000,4006.4848,N,08814.2292,W,1,05,2.1,228.7,M,-33.9,M,,0000*6E
$GPGLL,4006.4848,N,08814.2292,W,002751.000,A,A*46
$GPGSA,A,3,22,12,14,25,31,,,,,,,,3.1,2.1,2.2*30
$GPRMC,002751.000,A,4006.4848,N,08814.2292,W,0.72,273.77,251213,,,A*74
$GPGGA,002752.000,4006.4847,N,08814.2281,W,1,05,2.1,228.5,M,-33.9,M,,0000*62
$GPGLL,4006.4847,N,08814.2281,W,002752.000,A,A*48
$GPGSA,A,3,22,12,14,25,31,,,,,,,,3.1,2.1,2.2*30
$GPRMC,002752.000,A,4006.4847,N,08814.2281,W,0.24,277.23,251213,,,A*7C
$GPGGA,002753.000,4006.4845,N,08814.2271,W,1,05,2.1,228.1,M,-33.9,M,,0000*6A
$GPGLL,4006.4845,N,08814.2271,W,002753.000,A,A*44
$GPGSA,A,3,22,12,14,25,31,,,,,,,,3.1,2.1,2.2*30
$GPRMC,002753.000,A,4006.4845,N,08814.2271,W,0.07,226.89,251213,,,A*75
$GPGGA,002754.000,4006.4843,N,08814.2265,W,1,05,2.1,227.4,M,-33.9,M,,0000*64
$GPGLL,4006.4843,N,08814.2265,W,002754.000,A,A*40
$GPGSA,A,3,22,12,14,25,31,,,,,,,,3.1,2.1,2.2*30
$GPGSV,3,1,09,31,79,247,20,14,52,066,30,32,49,306,19,25,37,070,20*7B
$GPGSV,3,2,09,22,28,149,27,01,24,284,,20,14,315,,12,13,037,29*75
$GPGSV,3,3,09,11,10,259,14*4A
$GPRMC,002754.000,A,4006.4843,N,08814.2265,W,0.14,253.84,251213,,,A*7C
$GPGGA,002755.000,4006.4841,N,08814.2266,W,1,05,2.1,226.6,M,-33.9,M,,0000*67
$GPGLL,4006.4841,N,08814.2266,W,002755.000,A,A*40
$GPGSA,A,3,22,12,14,25,31,,,,,,,,3.1,2.1,2.2*30
$GPRMC,002755.000,A,4006.4841,N,08814.2266,W,0.32,258.19,251213,,,A*77
$GPGGA,002756.000,4006.4840,N,08814.2270,W,1,04,7.0,226.2,M,-33.9,M,,0000*63
$GPGLL,4006.4840,N,08814.2270,W,002756.000,A,A*45
$GPGSA,A,3,22,12,14,25,,,,,,,,,7.6,7.0,2.8*3F
$GPRMC,002756.000,A,4006.4840,N,08814.2270,W,0.24,257.40,251213,,,A*76
$GPGGA,002757.000,4006.4839,N,08814.2272,W,1,04,7.0,225.8,M,-33.9,M,,0000*67
$GPGLL,4006.4839,N,08814.2272,W,002757.000,A,A*48
$GPGSA,A,3,22,12,14,25,,,,,,,,,7.6,7.0,2.8*3F
$GPRMC,002757.000,A,4006.4839,N,08814.2272,W,0.11,92.01,251213,,,A*43
$GPGGA,002758.000,4006.4838,N,08814.2272,W,1,04,7.1,225.5,M,-33.9,M,,0000*65
$GPGLL,4006.4838,N,08814.2272,W,002758.000,A,A*46
$GPGSA,A,3,22,12,14,25,,,,,,,,,7.6,7.1,2.8*3E
$GPRMC,002758.000,A,4006.4838,N,08814.2272,W,0.79,98.34,251213,,,A*4F
$GPGGA,002759.000,4006.4838,N,08814.2275,W,1,04,7.1,225.2,M,-33.9,M,,0000*64
$GPGLL,4006.4838,N,08814.2275,W,002759.000,A,A*40
$GPGSA,A,3,22,12,14,25,,,,,,,,,7.6,7.1,2.8*3E
$GPGSV,3,1,09,31,79,247,,14,52,066,30,32,49,306,21,25,37,070,21*73
$GPGSV,3,2,09,22,28,149,28,01,24,284,,20,14,315,,12,13,037,29*7A
$GPGSV,3,3,09,11,10,259,14*4A
$GPRMC,002759.000,A,4006.4838,N,08814.2275,W,0.16,119.13,251213,,,A*7D
$GPGGA,002800.000,4006.4837,N,08814.2273,W,1,04,7.1,225.0,M,-33.9,M,,0000*6C
$GPGLL,4006.4837,N,08814.2273,W,002800.000,A,A*4A
$GPGSA,A,3,22,12,14,25,,,,,,,,,7.6,7.1,2.8*3E
$GPRMC,002800.000,A,4006.4837,N,08814.2273,W,0.59,99.41,251213,,,A*42
$GPGGA,002801.000,4006.4836,N,08814.2258,W,1,04,7.1,225.0,M,-33.9,M,,0000*65
$GPGLL,4006.4836,N,08814.2258,W,002801.000,A,A*43
$GPGSA,A,3,22,12,14,25,,,,,,,,,7.6,7.1,2.8*3E
$GPRMC,002801.000,A,4006.4836,N,08814.2258,W,1.95,96.26,251213,,,A*44
$GPGGA,002802.000,4006.4835,N,08814.2242,W,1,04,7.1,225.0,M,-33.9,M,,0000*6E
$GPGLL,4006.4835,N,08814.2242,W,002802.000,A,A*48
$GPGSA,A,3,22,12,14,25,,,,,,,,,7.6,7.1,2.8*3E
$GPRMC,002802.000,A,4006.4835,N,08814.2242,W,2.42,96.52,251213,,,A*45
$GPGGA,002803.000,4006.4835,N,08814.2244,W,1,04,7.1,224.8,M,-33.9,M,,0000*60
$GPGLL,4006.4835,N,08814.2244,W,002803.000,A,A*4F
$GPGSA,A,3,22,12,14,25,,,,,,,,,7.6,7.1,2.8*3E
$GPRMC,002803.000,A,4006.4835,N,08814.2244,W,1.22,99.33,251213,,,A*4F
$GPGGA,002804.000,4006.4836,N,08814.2244,W,1,04,7.1,224.8,M,-33.9,M,,0000*64
$GPGLL,4006.4836,N,08814.2244,W,002804.000,A,A*4B
$GPGSA,A,3,22,12,14,25,,,,,,,,,7.6,7.1,2.8*3E
$GPGSV,3,1,09,31,79,247,,14,52,066,31,32,49,306,21,25,37,070,20*73
$GPGSV,3,2,09,22,28,149,28,01,24,284,,20,14,315,,12,13,037,29*7A
$GPGSV,3,3,09,11,10,259,14*4A
$GPRMC,002804.000,A,4006.4836,N,08814.2244,W,0.29,112.23,251213,,,A*72
$GPGGA,002805.000,4006.4831,N,08814.2206,W,1,05,2.1,223.8,M,-33.9,M,,0000*67
$GPGLL,4006.4831,N,08814.2206,W,002805.000,A,A*4B
$GPGSA,A,3,22,12,14,25,31,,,,,,,,3.1,2.1,2.2*30
$GPRMC,002805.000,A,4006.4831,N,08814.2206,W,1.32,97.79,251213,,,A*4A
$GPGGA,002806.000,4006.4827,N,08814.2166,W,1,05,2.1,222.9,M,-33.9,M,,0000*66
$GPGLL,4006.4827,N,08814.2166,W,002806.000,A,A*4A
$GPGSA,A,3,22,12,14,25,31,,,,,,,,3.1,2.1,2.2*30
$GPRMC,002806.000,A,4006.4827,N,08814.2166,W,1.23,101.32,251213,,,A*7A
$GPGGA,002807.000,4006.4825,N,08814.2138,W,1,05,2.1,222.4,M,-33.9,M,,0000*63
$GPGLL,4006.4825,N,08814.2138,W,002807.000,A,A*42
$GPGSA,A,3,22,12,14,25,31,,,,,,,,3.1,2.1,2.2*30
$GPRMC,002807.000,A,4006.4825,N,08814.2138,W,0.37,111.23,251213,,,A*77
$GPGGA,002808.000,4006.4824,N,08814.2120,W,1,05,2.1,222.3,M,-33.9,M,,0000*63
$GPGLL,4006.4824,N,08814.2120,W,002808.000,A,A*45
$GPGSA,A,3,22,12,14,25,31,,,,,,,,3.1,2.1,2.2*30
$GPRMC,002808.000,A,4006.4824,N,08814.2120,W,0.12,220.72,251213,,,A*72
$GPGGA,002809.000,4006.4824,N,08814.2115,W,1,05,2.1,222.4,M,-33.9,M,,0000*63
$GPGLL,4006.4824,N,08814.2115,W,002809.000,A,A*42
$GPGSA,A,3,22,12,14,25,31,,,,,,,,3.1,2.1,2.2*30
$GPGSV,3,1,09,31,79,247,20,14,52,066,31,32,49,306,21,25,37,070,20*71
$GPGSV,3,2,09,22,28,149,28,01,24,284,,20,14,315,,12,13,037,29*7A
$GPGSV,3,3,09,11,10,259,15*4B
$GPRMC,002809.000,A,4006.4824,N,08814.2115,W,0.44,268.70,251213,,,A*78
$GPGGA,002810.000,4006.4824,N,08814.2114,W,1,05,2.1,222.4,M,-33.9,M,,0000*6A
$GPGLL,4006.4824,N,08814.2114,W,002810.000,A,A*4B
$GPGSA,A,3,22,12,14,25,31,,,,,,,,3.1,2.1,2.2*30
$GPRMC,002810.000,A,4006.4824,N,08814.2114,W,0.01,227.40,251213,,,A*78
$GPGGA,002811.000,4006.4824,N,08814.2114,W,1,05,2.1,222.3,M,-33.9,M,,0000*6C
$GPGLL,4006.4824,N,08814.2114,W,002811.000,A,A*4A
$GPGSA,A,3,22,12,14,25,31,,,,,,,,3.1,2.1,2.2*30
$GPRMC,002811.000,A,4006.4824,N,08814.2114,W,0.72,97.79,251213,,,A*4E
$GPGGA,002812.000,4006.4824,N,08814.2116,W,1,05,2.1,222.2,M,-33.9,M,,0000*6C
$GPGLL,4006.4824,N,08814.2116,W,002812.000,A,A*4B
$GPGSA,A,3,22,12,14,25,31,,,,,,,,3.1,2.1,2.2*30
$GPRMC,002812.000,A,4006.4824,N,08814.2116,W,0.39,100.22,251213,,,A*71
$GPGGA,002813.000,4006.4826,N,08814.2128,W,1,05,2.1,222.3,M,-33.9,M,,0000*63
$GPGLL,4006.4826,N,08814.2128,W,002813.000,A,A*45
$GPGSA,A,3,22,12,14,25,31,,,,,,,,3.1,2.1,2.2*30
$GPRMC,002813.000,A,4006.4826,N,08814.2128,W,0.71,269.37,251213,,,A*7B
$GPGGA,002814.000,4006.4827,N,08814.2142,W,1,05,2.1,222.5,M,-33.9,M,,0000*6F
$GPGLL,4006.4827,N,08814.2142,W,002814.000,A,A*4F
$GPGSA,A,3,22,12,14,25,31,,,,,,,,3.1,2.1,2.2*30
$GPGSV,3,1,09,31,79,247,21,14,52,066,31,32,49,306,20,25,37,070,21*70
$GPGSV,3,2,09,22,28,149,28,01,24,284,,20,14,315,,12,13,037,29*7A
$GPGSV,3,3,09,11,10,259,17*49
$GPRMC,002814.000,A,4006.4827,N,08814.2142,W,1.32,274.41,251213,,,A*7A
$GPGGA,002815.000,4006.4827,N,08814.2144,W,1,05,2.1,222.6,M,-33.9,M,,0000*6B
$GPGLL,4006.4827,N,08814.2144,W,002815.000,A,A*48
$GPGSA,A,3,22,12,14,25,31,,,,,,,,3.1,2.1,2.2*30
$GPRMC,002815.000,A,4006.4827,N,08814.2144,W,1.63,274.96,251213,,,A*73
$GPGGA,002816.000,4006.4826,N,08814.2140,W,1,05,2.1,222.6,M,-33.9,M,,0000*6D
$GPGLL,4006.4826,N,08814.2140,W,002816.000,A,A*4E
$GPGSA,A,3,22,12,14,25,31,,,,,,,,3.1,2.1,2.2*30
$GPRMC,002816.000,A,4006.4826,N,08814.2140,W,1.17,276.53,251213,,,A*7D
$GPGGA,002817.000,4006.4827,N,08814.2147,W,1,05,2.1,222.7,M,-33.9,M,,0000*6B
$GPGLL,4006.4827,N,08814.2147,W,002817.000,A,A*49
$GPGSA,A,3,22,12,14,25,31,,,,,,,,3.1,2.1,2.2*30
$GPRMC,002817.000,A,4006.4827,N,08814.2147,W,0.70,281.03,251213,,,A*77
$GPGGA,002818.000,4006.4827,N,08814.2151,W,1,05,2.1,222.8,M,-33.9,M,,0000*6C
$GPGLL,4006.4827,N,08814.2151,W,002818.000,A,A*41
$GPGSA,A,3,22,12,14,25,31,,,,,,,,3.1,2.1,2.2*30
$GPRMC,002818.000,A,4006.4827,N,08814.2151,W,0.90,276.64,251213,,,A*78
$GPGGA,002819.000,4006.4828,N,08814.2153,W,1,05,2.1,222.9,M,-33.9,M,,0000*61
$GPGLL,4006.4828,N,08814.2153,W,002819.000,A,A*4D
$GPGSA,A,3,22,12,14,25,31,,,,,,,,3.1,2.1,2.2*30
$GPGSV,3,1,09,31,79,247,21,14,52,066,32,32,49,306,19,25,37,070,21*79
$GPGSV,3,2,09,22,28,149,28,01,24,284,,20,14,315,,12,13,037,30*72
$GPGSV,3,3,09,11,10,259,18*46
$GPRMC,002819.000,A,4006.4828,N,08814.2153,W,0.58,278.03,251213,,,A*7F
$GPGGA,002820.000,4006.4828,N,08814.2151,W,1,05,2.1,223.0,M,-33.9,M,,0000*61
$GPGLL,4006.4828,N,08814.2151,W,002820.000,A,A*45
$GPGSA,A,3,22,12,14,25,31,,,,,,,,3.1,2.1,2.2*30
$GPRMC,002820.000,A,4006.4828,N,08814.2151,W,0.22,88.01,251213,,,A*45
$GPGGA,002821.000,4006.4829,N,08814.2149,W,1,05,2.1,223.2,M,-33.9,M,,0000*6A
$GPGLL,4006.4829,N,08814.2149,W,002821.000,A,A*4C
$GPGSA,A,3,22,12,14,25,31,,,,,,,,3.1,2.1,2.2*30
$GPRMC,002821.000,A,4006.4829,N,08814.2149,W,0.37,279.68,251213,,,A*7B
$GPGGA,002822.000,4006.4830,N,08814.2151,W,1,05,2.1,223.4,M,-33.9,M,,0000*6E
$GPGLL,4006.4830,N,08814.2151,W,002822.000,A,A*4E
$GPGSA,A,3,22,12,14,25,31,,,,,,,,3.1,2.1,2.2*30
$GPRMC,002822.000,A,4006.4830,N,08814.2151,W,1.29,275.02,251213,,,A*77
$GPGGA,002823.000,4006.4831,N,08814.2156,W,1,05,2.1,223.6,M,-33.9,M,,0000*6B
$GPGLL,4006.4831,N,08814.2156,W,002823.000,A,A*49
$GPGSA,A,3,22,12,14,25,31,,,,,,,,3.1,2.1,2.2*30
$GPRMC,002823.000,A,4006.4831,N,08814.2156,W,1.55,275.72,251213,,,A*7C
$GPGGA,002824.000,4006.4832,N,08814.2156,W,1,05,2.1,223.8,M,-33.9,M,,0000*61
$GPGLL,4006.4832,N,08814.2156,W,002824.000,A,A*4D
$GPGSA,A,3,22,12,14,25,31,,,,,,,,3.1,2.1,2.2*30
$GPGSV,3,1,09,31,79,247,22,14,52,066,32,32,49,306,18,25,37,070,21*7B
$GPGSV,3,2,09,22,28,149,28,01,24,284,,20,14,315,,12,13,037,30*72
$GPGSV,3,3,09,11,10,259,17*49
$GPRMC,002824.000,A,4006.4832,N,08814.2156,W,1.26,277.66,251213,,,A*7B
$GPGGA,002825.000,4006.4833,N,08814.2156,W,1,05,2.1,224.2,M,-33.9,M,,0000*6C
$GPGLL,4006.4833,N,08814.2156,W,002825.000,A,A*4D
$GPGSA,A,3,22,12,14,25,31,,,,,,,,3.1,2.1,2.2*30
$GPRMC,002825.000,A,4006.4833,N,08814.2156,W,0.84,280.74,251213,,,A*79
$GPGGA,002826.000,4006.4834,N,08814.2157,W,1,05,2.1,224.3,M,-33.9,M,,0000*68
$GPGLL,4006.4834,N,08814.2157,W,002826.000,A,A*48
$GPGSA,A,3,22,12,14,25,31,,,,,,,,3.1,2.1,2.2*30
$GPRMC,002826.000,A,4006.4834,N,08814.2157,W,1.11,276.39,251213,,,A*71
$GPGGA,002827.000,4006.4834,N,08814.2159,W,1,05,2.1,224.3,M,-33.9,M,,0000*67
$GPGLL,4006.4834,N,08814.2159,W,002827.000,A,A*47
$GPGSA,A,3,22,12,14,25,31,,,,,,,,3.1,2.1,2.2*30
$GPRMC,002827.000,A,4006.4834,N,08814.2159,W,0.30,269.62,251213,,,A*7C
$GPGGA,002828.000,4006.4835,N,08814.2159,W,1,05,2.1,224.6,M,-33.9,M,,0000*6C
$GPGLL,4006.4835,N,08814.2159,W,002828.000,A,A*49
$GPGSA,A,3,22,12,14,25,31,,,,,,,,3.1,2.1,2.2*30
$GPRMC,002828.000,A,4006.4835,N,08814.2159,W,0.58,276.35,251213,,,A*70
$GPGGA,002829.000,4006.4836,N,08814.2161,W,1,05,2.1,224.7,M,-33.9,M,,0000*64
$GPGLL,4006.4836,N,08814.2161,W,002829.000,A,A*40
$GPGSA,A,3,22,12,14,25,31,,,,,,,,3.1,2.1,2.2*30
$GPGSV,3,1,09,31,80,252,22,14,51,067,32,32,50,306,17,25,37,068,20*74
$GPGSV,3,2,09,22,27,150,29,01,23,282,,20,15,315,,12,12,037,30*75
$GPGSV,3,3,09,11,09,258,15*42
$GPRMC,002829.000,A,4006.4836,N,08814.2161,W,0.46,278.39,251213,,,A*74
$GPGGA,002830.000,4006.4835,N,08814.2155,W,1,05,2.1,224.7,M,-33.9,M,,0000*68
$GPGLL,4006.4835,N,08814.2155,W,002830.000,A,A*4C
$GPGSA,A,3,22,12,14,25,31,,,,,,,,3.1,2.1,2.2*30
$GPRMC,002830.000,A,4006.4835,N,08814.2155,W,0.38,277.78,251213,,,A*7B
$GPGGA,002831.000,4006.4835,N,08814.2153,W,1,05,2.1,224.7,M,-33.9,M,,0000*6F
$GPGLL,4006.4835,N,08814.2153,W,002831.000,A,A*4B
$GPGSA,A,3,22,12,14,25,31,,,,,,,,3.1,2.1,2.2*30
$GPRMC,002831.000,A,4006.4835,N,08814.2153,W,0.31,91.81,251213,,,A*49
$GPGGA,002832.000,4006.4834,N,08814.2143,W,1,05,2.1,224.8,M,-33.9,M,,0000*63
$GPGLL,4006.4834,N,08814.2143,W,002832.000,A,A*48
$GPGSA,A,3,22,12,14,25,31,,,,,,,,3.1,2.1,2.2*30
$GPRMC,002832.000,A,4006.4834,N,08814.2143,W,0.27,90.15,251213,,,A*41
$GPGGA,002833.000,4006.4834,N,08814.2142,W,1,05,2.1,224.7,M,-33.9,M,,0000*6C
$GPGLL,4006.4834,N,08814.2142,W,002833.000,A,A*48
$GPGSA,A,3,22,12,14,25,31,,,,,,,,3.1,2.1,2.2*30
$GPRMC,002833.000,A,4006.4834,N,08814.2142,W,0.56,92.31,251213,,,A*43
$GPGGA,002834.000,4006.4833,N,08814.2142,W,1,05,2.1,224.4,M,-33.9,M,,0000*6F
$GPGLL,4006.4833,N,08814.2142,W,002834.000,A,A*48
$GPGSA,A,3,22,12,14,25,31,,,,,,,,3.1,2.1,2.2*30
$GPGSV,3,1,09,31,80,252,22,14,51,067,32,32,50,306,16,25,37,068,21*74
$GPGSV,3,2,09,22,27,150,29,01,23,282,,20,15,315,,12,12,037,30*75
$GPGSV,3,3,09,11,09,258,*46
$GPRMC,002834.000,A,4006.4833,N,08814.2142,W,0.34,94.20,251213,,,A*41
$GPGGA,002835.000,4006.4833,N,08814.2146,W,1,05,2.1,224.3,M,-33.9,M,,0000*6D
$GPGLL,4006.4833,N,08814.2146,W,002835.000,A,A*4D
$GPGSA,A,3,22,12,14,25,31,,,,,,,,3.1,2.1,2.2*30
$GPRMC,002835.000,A,4006.4833,N,08814.2146,W,0.51,277.44,251213,,,A*7A
$GPGGA,002836.000,4006.4834,N,08814.2150,W,1,05,2.1,224.6,M,-33.9,M,,0000*6B
$GPGLL,4006.4834,N,08814.2150,W,002836.000,A,A*4E
$GPGSA,A,3,22,12,14,25,31,,,,,,,,3.1,2.1,2.2*30
$GPRMC,002836.000,A,4006.4834,N,08814.2150,W,1.16,278.28,251213,,,A*7E
$GPGGA,002837.000,4006.4835,N,08814.2158,W,1,05,2.1,224.6,M,-33.9,M,,0000*63
$GPGLL,4006.4835,N,08814.2158,W,002837.000,A,A*46
$GPGSA,A,3,22,12,14,25,31,,,,,,,,3.1,2.1,2.2*30
$GPRMC,002837.000,A,4006.4835,N,08814.2158,W,0.78,278.08,251213,,,A*7D
$GPGGA,002838.000,4006.4835,N,08814.2159,W,1,05,2.1,224.6,M,-33.9,M,,0000*6D
$GPGLL,4006.4835,N,08814.2159,W,002838.000,A,A*48
$GPGSA,A,3,22,12,14,25,31,,,,,,,,3.1,2.1,2.2*30
$GPRMC,002838.000,A,4006.4835,N,08814.2159,W,0.11,297.31,251213,,,A*77
$GPGGA,002839.000,4006.4835,N,08814.2159,W,1,05,2.1,224.3,M,-33.9,M,,0000*69
$GPGLL,4006.4835,N,08814.2159,W,002839.000,A,A*49
$GPGSA,A,3,22,12,14,25,31,,,,,,,,3.1,2.1,2.2*30
$GPGSV,3,1,09,31,80,252,19,14,51,067,32,32,50,306,15,25,37,068,23*7D
$GPGSV,3,2,09,22,27,150,29,01,23,282,,20,15,315,,12,12,037,30*75
$GPGSV,3,3,09,11,09,258,*46
$GPRMC,002839.000,A,4006.4835,N,08814.2159,W,1.24,94.64,251213,,,A*40
$GPGGA,002840.000,4006.4834,N,08814.2164,W,1,05,2.1,223.9,M,-33.9,M,,0000*65
$GPGLL,4006.4834,N,08814.2164,W,002840.000,A,A*48
$GPGSA,A,3,22,12,14,25,31,,,,,,,,3.1,2.1,2.2*30
$GPRMC,002840.000,A,4006.4834,N,08814.2164,W,1.12,98.83,251213,,,A*41
$GPGGA,002841.000,4006.4834,N,08814.2170,W,1,05,2.1,223.7,M,-33.9,M,,0000*6F
$GPGLL,4006.4834,N,08814.2170,W,002841.000,A,A*4C
$GPGSA,A,3,22,12,14,25,31,,,,,,,,3.1,2.1,2.2*30
$GPRMC,002841.000,A,4006.4834,N,08814.2170,W,0.39,96.61,251213,,,A*4F
$GPGGA,002842.000,4006.4835,N,08814.2181,W,1,05,2.1,223.6,M,-33.9,M,,0000*62
$GPGLL,4006.4835,N,08814.2181,W,002842.000,A,A*40
$GPGSA,A,3,22,12,14,25,31,,,,,,,,3.1,2.1,2.2*30
$GPRMC,002842.000,A,4006.4835,N,08814.2181,W,0.78,273.51,251213,,,A*7C
$GPGGA,002843.000,4006.4835,N,08814.2193,W,1,05,2.1,223.6,M,-33.9,M,,0000*60
$GPGLL,4006.4835,N,08814.2193,W,002843.000,A,A*42
$GPGSA,A,3,22,12,14,25,31,,,,,,,,3.1,2.1,2.2*30
$GPRMC,002843.000,A,4006.4835,N,08814.2193,W,1.39,277.60,251213,,,A*7C
$GPGGA,002844.000,4006.4835,N,08814.2204,W,1,05,2.1,223.3,M,-33.9,M,,0000*6F
$GPGLL,4006.4835,N,08814.2204,W,002844.000,A,A*48
$GPGSA,A,3,22,12,14,25,31,,,,,,,,3.1,2.1,2.2*30
$GPGSV,3,1,09,31,80,252,17,14,51,067,33,32,50,306,15,25,37,068,24*75
$GPGSV,3,2,09,22,27,150,30,01,23,282,,20,15,315,,12,12,037,30*7D
$GPGSV,3,3,09,11,09,258,14*43
$GPRMC,002844.000,A,4006.4835,N,08814.2204,W,2.43,274.51,251213,,,A*79
$GPGGA,002845.000,4006.4835,N,08814.2211,W,1,05,2.1,223.0,M,-33.9,M,,0000*69
$GPGLL,4006.4835,N,08814.2211,W,002845.000,A,A*4D
$GPGSA,A,3,22,12,14,25,31,,,,,,,,3.1,2.1,2.2*30
$GPRMC,002845.000,A,4006.4835,N,08814.2211,W,3.23,274.68,251213,,,A*71
$GPGGA,002846.000,4006.4835,N,08814.2217,W,1,05,2.1,223.1,M,-33.9,M,,0000*6D
$GPGLL,4006.4835,N,08814.2217,W,002846.000,A,A*48
$GPGSA,A,3,22,12,14,25,31,,,,,,,,3.1,2.1,2.2*30
$GPRMC,002846.000,A,4006.4835,N,08814.2217,W,3.28,276.72,251213,,,A*76
$GPGGA,002847.000,4006.4836,N,08814.2221,W,1,05,2.1,223.2,M,-33.9,M,,0000*69
$GPGLL,4006.4836,N,08814.2221,W,002847.000,A,A*4F
$GPGSA,A,3,22,12,14,25,31,,,,,,,,3.1,2.1,2.2*30
$GPRMC,002847.000,A,4006.4836,N,08814.2221,W,3.49,276.53,251213,,,A*75
$GPGGA,002848.000,4006.4836,N,08814.2226,W,1,05,2.1,223.4,M,-33.9,M,,0000*67
$GPGLL,4006.4836,N,08814.2226,W,002848.000,A,A*47
$GPGSA,A,3,22,12,14,25,31,,,,,,,,3.1,2.1,2.2*30
$GPRMC,002848.000,A,4006.4836,N,08814.2226,W,3.87,277.18,251213,,,A*71
$GPGGA,002849.000,4006.4837,N,08814.2239,W,1,05,2.1,223.3,M,-33.9,M,,0000*6E
$GPGLL,4006.4837,N,08814.2239,W,002849.000,A,A*49
$GPGSA,A,3,22,12,14,25,31,,,,,,,,3.1,2.1,2.2*30
$GPGSV,3,1,09,31,80,252,16,14,51,067,32,32,50,306,18,25,37,068,24*78
$GPGSV,3,2,09,22,27,150,31,01,23,282,,20,15,315,,12,12,037,30*7C
$GPGSV,3,3,09,11,09,258,16*41
$GPRMC,002849.000,A,4006.4837,N,08814.2239,W,4.43,275.85,251213,,,A*76
$GPGGA,002850.000,4006.4838,N,08814.2247,W,1,05,2.1,223.7,M,-33.9,M,,0000*64
$GPGLL,4006.4838,N,08814.2247,W,002850.000,A,A*47
$GPGSA,A,3,22,12,14,25,31,,,,,,,,3.1,2.1,2.2*30
$GPRMC,002850.000,A,4006.4838,N,08814.2247,W,4.22,277.29,251213,,,A*7B
$GPGGA,002851.000,4006.4839,N,08814.2256,W,1,05,2.1,223.9,M,-33.9,M,,0000*6A
$GPGLL,4006.4839,N,08814.2256,W,002851.000,A,A*47
$GPGSA,A,3,22,12,14,25,31,,,,,,,,3.1,2.1,2.2*30
$GPRMC,002851.000,A,4006.4839,N,08814.2256,W,4.00,277.44,251213,,,A*70
$GPGGA,002852.000,4006.4840,N,08814.2268,W,1,04,7.3,224.1,M,-33.9,M,,0000*63
$GPGLL,4006.4840,N,08814.2268,W,002852.000,A,A*47
$GPGSA,A,3,22,12,14,25,,,,,,,,,7.8,7.3,2.8*32
$GPRMC,002852.000,A,4006.4840,N,08814.2268,W,3.53,277.34,251213,,,A*76
$GPGGA,002853.000,4006.4841,N,08814.2282,W,1,04,7.3,224.0,M,-33.9,M,,0000*66
$GPGLL,4006.4841,N,08814.2282,W,002853.000,A,A*43
$GPGSA,A,3,22,12,14,25,,,,,,,,,7.8,7.3,2.8*32
$GPRMC,002853.000,A,4006.4841,N,08814.2282,W,3.23,277.03,251213,,,A*71
$GPGGA,002854.000,4006.4841,N,08814.2290,W,1,04,7.3,224.1,M,-33.9,M,,0000*63
$GPGLL,4006.4841,N,08814.2290,W,002854.000,A,A*47
$GPGSA,A,3,22,12,14,25,,,,,,,,,7.8,7.3,2.8*32
$GPGSV,3,1,09,31,80,252,,14,51,067,32,32,50,306,19,25,37,068,24*7E
$GPGSV,3,2,09,22,27,150,31,01,23,282,,20,15,315,,12,12,037,30*7C
$GPGSV,3,3,09,11,09,258,16*41
$GPRMC,002854.000,A,4006.4841,N,08814.2290,W,2.55,277.88,251213,,,A*76
$GPGGA,002855.000,4006.4841,N,08814.2294,W,1,04,7.3,224.2,M,-33.9,M,,0000*65
$GPGLL,4006.4841,N,08814.2294,W,002855.000,A,A*42
$GPGSA,A,3,22,12,14,25,,,,,,,,,7.8,7.3,2.8*32
$GPRMC,002855.000,A,4006.4841,N,08814.2294,W,1.64,278.27,251213,,,A*78
$GPGGA,002856.000,4006.4842,N,08814.2298,W,1,04,7.3,224.2,M,-33.9,M,,0000*69
$GPGLL,4006.4842,N,08814.2298,W,002856.000,A,A*4E
$GPGSA,A,3,22,12,14,25,,,,,,,,,7.8,7.3,2.8*32
$GPRMC,002856.000,A,4006.4842,N,08814.2298,W,1.50,277.11,251213,,,A*79
$GPGGA,002857.000,4006.4841,N,08814.2293,W,1,04,7.3,224.2,M,-33.9,M,,0000*60
$GPGLL,4006.4841,N,08814.2293,W,002857.000,A,A*47
$GPGSA,A,3,22,12,14,25,,,,,,,,,7.9,7.3,2.8*33
$GPRMC,002857.000,A,4006.4841,N,08814.2293,W,0.49,287.43,251213,,,A*71
$GPGGA,002858.000,4006.4841,N,08814.2286,W,1,04,7.3,224.2,M,-33.9,M,,0000*6B
$GPGLL,4006.4841,N,08814.2286,W,002858.000,A,A*4C
$GPGSA,A,3,22,12,14,25,,,,,,,,,7.9,7.3,2.8*33
$GPRMC,002858.000,A,4006.4841,N,08814.2286,W,0.01,346.28,251213,,,A*77
$GPGGA,002859.000,4006.4842,N,08814.2290,W,1,05,2.1,224.5,M,-33.9,M,,0000*6F
$GPGLL,4006.4842,N,08814.2290,W,002859.000,A,A*49
$GPGSA,A,3,22,12,14,25,31,,,,,,,,3.1,2.1,2.2*30
$GPGSV,3,1,09,31,80,252,18,14,51,067,32,32,50,306,19,25,37,068,24*77
$GPGSV,3,2,09,22,27,150,31,01,23,282,,20,15,315,,12,12,037,30*7C
$GPGSV,3,3,09,11,09,258,16*41
$GPRMC,002859.000,A,4006.4842,N,08814.2290,W,0.33,277.52,251213,,,A*7D
$GPGGA,002900.000,4006.4843,N,08814.2291,W,1,05,2.1,224.8,M,-33.9,M,,0000*6F
$GPGLL,4006.4843,N,08814.2291,W,002900.000,A,A*44
$GPGSA,A,3,22,12,14,25,31,,,,,,,,3.1,2.1,2.2*30
$GPRMC,002900.000,A,4006.4843,N,08814.2291,W,0.52,286.61,251213,,,A*79
$GPGGA,002901.000,4006.4844,N,08814.2296,W,1,05,2.1,225.0,M,-33.9,M,,0000*67
$GPGLL,4006.4844,N,08814.2296,W,002901.000,A,A*45
$GPGSA,A,3,22,12,14,25,31,,,,,,,,3.1,2.1,2.2*30
$GPRMC,002901.000,A,4006.4844,N,08814.2296,W,1.39,276.68,251213,,,A*72
$GPGGA,002902.000,4006.4844,N,08814.2288,W,1,05,2.1,225.3,M,-33.9,M,,0000*68
$GPGLL,4006.4844,N,08814.2288,W,002902.000,A,A*49
$GPGSA,A,3,22,12,14,25,31,,,,,,,,3.1,2.1,2.2*30
$GPRMC,002902.000,A,4006.4844,N,08814.2288,W,1.64,277.41,251213,,,A*7C
$GPGGA,002903.000,4006.4845,N,08814.2285,W,1,05,2.1,225.7,M,-33.9,M,,0000*61
$GPGLL,4006.4845,N,08814.2285,W,002903.000,A,A*44
$GPGSA,A,3,22,12,14,25,31,,,,,,,,3.1,2.1,2.2*30
$GPRMC,002903.000,A,4006.4845,N,08814.2285,W,1.85,277.66,251213,,,A*7B
$GPGGA,002904.000,4006.4846,N,08814.2290,W,1,05,2.1,225.9,M,-33.9,M,,0000*6F
$GPGLL,4006.4846,N,08814.2290,W,002904.000,A,A*44
$GPGSA,A,3,22,12,14,25,31,,,,,,,,3.1,2.1,2.2*30
$GPGSV,3,1,09,31,80,252,16,14,51,067,32,32,50,306,19,25,37,068,23*7E
$GPGSV,3,2,09,22,27,150,25,01,23,282,,20,15,315,,12,12,037,29*71
$GPGSV,3,3,09,11,09,258,16*41
$GPRMC,002904.000,A,4006.4846,N,08814.2290,W,1.25,279.85,251213,,,A*72
$GPGGA,002905.000,4006.4847,N,08814.2299,W,1,05,2.1,226.1,M,-33.9,M,,0000*6D
$GPGLL,4006.4847,N,08814.2299,W,002905.000,A,A*4D
$GPGSA,A,3,22,12,14,25,31,,,,,,,,3.0,2.1,2.2*31
$GPRMC,002905.000,A,4006.4847,N,08814.2299,W,1.12,279.64,251213,,,A*70
$GPGGA,002906.000,4006.4848,N,08814.2303,W,1,05,2.1,226.4,M,-33.9,M,,0000*66
$GPGLL,4006.4848,N,08814.2303,W,002906.000,A,A*43
$GPGSA,A,3,22,12,14,25,31,,,,,,,,3.0,2.1,2.2*31
$GPRMC,002906.000,A,4006.4848,N,08814.2303,W,0.77,281.86,251213,,,A*77
$GPGGA,002907.000,4006.4848,N,08814.2303,W,1,04,7.4,226.4,M,-33.9,M,,0000*66
$GPGLL,4006.4848,N,08814.2303,W,002907.000,A,A*42
$GPGSA,A,3,22,12,14,25,,,,,,,,,7.9,7.4,2.8*34
$GPRMC,002907.000,A,4006.4848,N,08814.2303,W,0.71,280.51,251213,,,A*7B
$GPGGA,002908.000,4006.4844,N,08814.2303,W,1,04,7.4,225.4,M,-33.9,M,,0000*66
$GPGLL,4006.4844,N,08814.2303,W,002908.000,A,A*41
$GPGSA,A,3,22,12,14,25,,,,,,,,,7.9,7.4,2.8*34
$GPRMC,002908.000,A,4006.4844,N,08814.2303,W,0.47,232.10,251213,,,A*71
$GPGGA,002909.000,4006.4840,N,08814.2301,W,1,04,7.4,224.6,M,-33.9,M,,0000*62
$GPGLL,4006.4840,N,08814.2301,W,002909.000,A,A*46
$GPGSA,A,3,22,12,14,25,,,,,,,,,7.9,7.4,2.8*34
$GPGSV,3,1,09,31,80,252,,14,51,067,33,32,50,306,19,25,37,068,24*7F
$GPGSV,3,2,09,22,27,150,24,01,23,282,,20,15,315,,12,12,037,29*70
$GPGSV,3,3,09,11,09,258,17*40
$GPRMC,002909.000,A,4006.4840,N,08814.2301,W,0.55,185.04,251213,,,A*7F
$GPGGA,002910.000,4006.4838,N,08814.2301,W,1,04,7.4,224.3,M,-33.9,M,,0000*60
$GPGLL,4006.4838,N,08814.2301,W,002910.000,A,A*41
$GPGSA,A,3,22,12,14,25,,,,,,,,,7.9,7.4,2.8*34
$GPRMC,002910.000,A,4006.4838,N,08814.2301,W,0.17,259.44,251213,,,A*78
$GPGGA,002911.000,4006.4837,N,08814.2299,W,1,04,7.4,224.0,M,-33.9,M,,0000*6D
$GPGLL,4006.4837,N,08814.2299,W,002911.000,A,A*4F
$GPGSA,A,3,22,12,14,25,,,,,,,,,7.9,7.4,2.8*34
$GPRMC,002911.000,A,4006.4837,N,08814.2299,W,0.18,349.09,251213,,,A*70
$GPGGA,002912.000,4006.4837,N,08814.2299,W,1,04,7.4,223.7,M,-33.9,M,,0000*6E
$GPGLL,4006.4837,N,08814.2299,W,002912.000,A,A*4C
$GPGSA,A,3,22,12,14,25,,,,,,,,,7.9,7.4,2.8*34
$GPRMC,002912.000,A,4006.4837,N,08814.2299,W,0.20,165.93,251213,,,A*77
$GPGGA,002913.000,4006.4835,N,08814.2296,W,1,04,7.4,223.4,M,-33.9,M,,0000*61
$GPGLL,4006.4835,N,08814.2296,W,002913.000,A,A*40
$GPGSA,A,3,22,12,14,25,,,,,,,,,7.9,7.4,2.8*34
$GPRMC,002913.000,A,4006.4835,N,08814.2296,W,0.24,97.97,251213,,,A*47
$GPGGA,002914.000,4006.4836,N,08814.2291,W,1,04,7.4,223.5,M,-33.9,M,,0000*63
$GPGLL,4006.4836,N,08814.2291,W,002914.000,A,A*43
$GPGSA,A,3,22,12,14,25,,,,,,,,,7.9,7.4,2.8*34
$GPGSV,3,1,09,31,80,252,,14,51,067,33,32,50,306,18,25,37,068,25*7F
$GPGSV,3,2,09,22,27,150,18,01,23,282,,20,15,315,,12,12,037,28*7E
$GPGSV,3,3,09,11,09,258,18*4F
$GPRMC,002914.000,A,4006.4836,N,08814.2291,W,0.39,72.49,251213,,,A*40
$GPGGA,002915.000,4006.4836,N,08814.2287,W,1,04,7.4,223.4,M,-33.9,M,,0000*64
$GPGLL,4006.4836,N,08814.2287,W,002915.000,A,A*45
$GPGSA,A,3,22,12,14,25,,,,,,,,,7.9,7.4,2.8*34
$GPRMC,002915.000,A,4006.4836,N,08814.2287,W,0.56,111.81,251213,,,A*7F
$GPGGA,002916.000,4006.4837,N,08814.2282,W,1,04,7.4,223.6,M,-33.9,M,,0000*61
$GPGLL,4006.4837,N,08814.2282,W,002916.000,A,A*42
$GPGSA,A,3,22,12,14,25,,,,,,,,,7.9,7.4,2.8*34
$GPRMC,002916.000,A,4006.4837,N,08814.2282,W,0.55,106.98,251213,,,A*75
$GPGGA,002917.000,4006.4841,N,08814.2302,W,1,05,2.1,225.0,M,-33.9,M,,0000*69
$GPGLL,4006.4841,N,08814.2302,W,002917.000,A,A*4B
$GPGSA,A,3,22,12,14,25,31,,,,,,,,3.0,2.1,2.2*31
$GPRMC,002917.000,A,4006.4841,N,08814.2302,W,0.46,109.11,251213,,,A*70
$GPGGA,002918.000,4006.4846,N,08814.2319,W,1,05,2.1,226.2,M,-33.9,M,,0000*6A
$GPGLL,4006.4846,N,08814.2319,W,002918.000,A,A*49
$GPGSA,A,3,22,12,14,25,31,,,,,,,,3.0,2.1,2.2*31
$GPRMC,002918.000,A,4006.4846,N,08814.2319,W,0.39,124.75,251213,,,A*77
$GPGGA,002919.000,4006.4849,N,08814.2316,W,1,05,2.1,227.4,M,-33.9,M,,0000*6C
$GPGLL,4006.4849,N,08814.2316,W,002919.000,A,A*48
$GPGSA,A,3,22,12,14,25,31,,,,,,,,3.0,2.1,2.2*31
$GPGSV,3,1,09,31,80,252,19,14,51,067,33,32,50,306,17,25,37,068,26*7B
$GPGSV,3,2,09,22,27,150,18,01,23,282,,20,15,315,,12,12,037,22*74
$GPGSV,3,3,09,11,09,258,19*4E
$GPRMC,002919.000,A,4006.4849,N,08814.2316,W,0.44,244.59,251213,,,A*77
$GPGGA,002920.000,4006.4851,N,08814.2315,W,1,05,2.1,228.4,M,-33.9,M,,0000*63
$GPGLL,4006.4851,N,08814.2315,W,002920.000,A,A*48
$GPGSA,A,3,22,12,14,25,31,,,,,,,,3.0,2.1,2.2*31
$GPRMC,002920.000,A,4006.4851,N,08814.2315,W,0.37,201.74,251213,,,A*7D
$GPGGA,002921.000,4006.4854,N,08814.2308,W,1,05,2.1,228.8,M,-33.9,M,,0000*67
$GPGLL,4006.4854,N,08814.2308,W,002921.000,A,A*40
$GPGSA,A,3,22,12,14,25,31,,,,,,,,3.0,2.1,2.2*31
$GPRMC,002921.000,A,4006.4854,N,08814.2308,W,0.26,21.89,251213,,,A*47
$GPGGA,002922.000,4006.4856,N,08814.2290,W,1,05,2.1,228.6,M,-33.9,M,,0000*68
$GPGLL,4006.4856,N,08814.2290,W,002922.000,A,A*41
$GPGSA,A,3,22,12,14,25,31,,,,,,,,3.0,2.1,2.2*31
$GPRMC,002922.000,A,4006.4856,N,08814.2290,W,0.38,52.87,251213,,,A*43
$GPGGA,002923.000,4006.4861,N,08814.2287,W,1,05,2.1,229.4,M,-33.9,M,,0000*68
$GPGLL,4006.4861,N,08814.2287,W,002923.000,A,A*42
$GPGSA,A,3,22,12,14,25,31,,,,,,,,3.0,2.1,2.2*31
$GPRMC,002923.000,A,4006.4861,N,08814.2287,W,0.52,45.94,251213,,,A*48
$GPGGA,002924.000,4006.4865,N,08814.2279,W,1,05,2.1,230.5,M,-33.9,M,,0000*63
$GPGLL,4006.4865,N,08814.2279,W,002924.000,A,A*40
$GPGSA,A,3,22,12,14,25,31,,,,,,,,3.0,2.1,2.2*31
$GPGSV,3,1,09,31,80,252,19,14,51,067,32,32,50,306,18,25,37,068,25*76
$GPGSV,3,2,09,22,27,150,20,01,23,282,,20,15,315,,12,12,037,21*7C
$GPGSV,3,3,09,11,09,258,18*4F
$GPRMC,002924.000,A,4006.4865,N,08814.2279,W,0.72,111.23,251213,,,A*74
$GPGGA,002925.000,4006.4870,N,08814.2286,W,1,05,2.1,231.7,M,-33.9,M,,0000*65
$GPGLL,4006.4870,N,08814.2286,W,002925.000,A,A*45
$GPGSA,A,3,22,12,14,25,31,,,,,,,,3.0,2.1,2.2*31
$GPRMC,002925.000,A,4006.4870,N,08814.2286,W,0.66,144.40,251213,,,A*71
$GPGGA,002926.000,4006.4877,N,08814.2292,W,1,05,2.1,233.3,M,-33.9,M,,0000*62
$GPGLL,4006.4877,N,08814.2292,W,002926.000,A,A*44
$GPGSA,A,3,22,12,14,25,31,,,,,,,,3.0,2.1,2.2*31
$GPRMC,002926.000,A,4006.4877,N,08814.2292,W,0.28,16.38,251213,,,A*43
$GPGGA,002927.000,4006.4886,N,08814.2297,W,1,05,2.1,234.6,M,-33.9,M,,0000*6A
$GPGLL,4006.4886,N,08814.2297,W,002927.000,A,A*4E
$GPGSA,A,3,22,12,14,25,31,,,,,,,,3.0,2.1,2.2*31
$GPRMC,002927.000,A,4006.4886,N,08814.2297,W,0.67,326.64,251213,,,A*7B
$GPGGA,002928.000,4006.4895,N,08814.2301,W,1,05,2.1,235.4,M,-33.9,M,,0000*6A
$GPGLL,4006.4895,N,08814.2301,W,002928.000,A,A*4D
$GPGSA,A,3,22,12,14,25,31,,,,,,,,3.0,2.1,2.2*31
$GPRMC,002928.000,A,4006.4895,N,08814.2301,W,0.67,9.27,251213,,,A*71
$GPGGA,002929.000,4006.4902,N,08814.2296,W,1,05,2.1,236.7,M,-33.9,M,,0000*6B
$GPGLL,4006.4902,N,08814.2296,W,002929.000,A,A*4C
$GPGSA,A,3,22,12,14,25,31,,,,,,,,3.0,2.1,2.2*31
$GPGSV,3,1,09,31,80,252,20,14,51,067,32,32,50,306,24,25,37,068,25*73
$GPGSV,3,2,09,22,27,150,25,01,23,282,,20,15,315,13,12,12,037,21*7B
$GPGSV,3,3,09,11,09,258,17*40
$GPRMC,002929.000,A,4006.4902,N,08814.2296,W,0.90,92.76,251213,,,A*4E
$GPGGA,002930.000,4006.4907,N,08814.2295,W,1,05,2.1,238.2,M,-33.9,M,,0000*6E
$GPGLL,4006.4907,N,08814.2295,W,002930.000,A,A*42
$GPGSA,A,3,22,12,14,25,31,,,,,,,,3.0,2.1,2.2*31
$GPRMC,002930.000,A,4006.4907,N,08814.2295,W,0.89,110.61,251213,,,A*75
$GPGGA,002931.000,4006.4911,N,08814.2295,W,1,05,2.1,239.3,M,-33.9,M,,0000*68
$GPGLL,4006.4911,N,08814.2295,W,002931.000,A,A*44
$GPGSA,A,3,22,12,14,25,31,,,,,,,,3.0,2.1,2.2*31
$GPRMC,002931.000,A,4006.4911,N,08814.2295,W,0.46,95.96,251213,,,A*44
$GPGGA,002932.000,4006.4913,N,08814.2285,W,1,05,2.1,240.0,M,-33.9,M,,0000*65
$GPGLL,4006.4913,N,08814.2285,W,002932.000,A,A*44
$GPGSA,A,3,22,12,14,25,31,,,,,,,,3.0,2.1,2.2*31
$GPRMC,002932.000,A,4006.4913,N,08814.2285,W,0.28,114.69,251213,,,A*74
$GPGGA,002933.000,4006.4915,N,08814.2280,W,1,05,2.1,240.6,M,-33.9,M,,0000*61
$GPGLL,4006.4915,N,08814.2280,W,002933.000,A,A*46
$GPGSA,A,3,22,12,14,25,31,,,,,,,,3.0,2.1,2.2*31
$GPRMC,002933.000,A,4006.4915,N,08814.2280,W,0.21,343.60,251213,,,A*76
$GPGGA,002934.000,4006.4914,N,08814.2266,W,1,05,2.1,241.4,M,-33.9,M,,0000*6C
$GPGLL,4006.4914,N,08814.2266,W,002934.000,A,A*48
$GPGSA,A,3,22,12,14,25,31,,,,,,,,3.0,2.1,2.2*31
$GPGSV,3,1,09,31,80,252,20,14,51,067,32,32,50,306,24,25,37,068,25*73
$GPGSV,3,2,09,22,27,150,26,01,23,282,,20,15,315,,12,12,037,20*7B
$GPGSV,3,3,09,11,09,258,16*41
$GPRMC,002934.000,A,4006.4914,N,08814.2266,W,1.03,99.35,251213,,,A*4D
$GPGGA,002935.000,4006.4913,N,08814.2251,W,1,05,2.1,242.3,M,-33.9,M,,0000*6A
$GPGLL,4006.4913,N,08814.2251,W,002935.000,A,A*4A
$GPGSA,A,3,22,12,14,25,31,,,,,,,,3.0,2.1,2.2*31
$GPRMC,002935.000,A,4006.4913,N,08814.2251,W,1.65,99.37,251213,,,A*4D
$GPGGA,002936.000,4006.4912,N,08814.2236,W,1,05,2.1,242.7,M,-33.9,M,,0000*6D
$GPGLL,4006.4912,N,08814.2236,W,002936.000,A,A*49
$GPGSA,A,3,22,12,14,25,31,,,,,,,,3.0,2.1,2.2*31
$GPRMC,002936.000,A,4006.4912,N,08814.2236,W,1.40,87.58,251213,,,A*4F
$GPGGA,002937.000,4006.4913,N,08814.2226,W,1,05,2.1,242.6,M,-33.9,M,,0000*6D
$GPGLL,4006.4913,N,08814.2226,W,002937.000,A,A*48
$GPGSA,A,3,22,12,14,25,31,,,,,,,,3.0,2.1,2.2*31
$GPRMC,002937.000,A,4006.4913,N,08814.2226,W,0.94,66.41,251213,,,A*41
$GPGGA,002938.000,4006.4914,N,08814.2223,W,1,05,2.1,242.9,M,-33.9,M,,0000*6F
$GPGLL,4006.4914,N,08814.2223,W,002938.000,A,A*45
$GPGSA,A,3,22,12,14,25,31,,,,,,,,3.0,2.1,2.2*31
$GPRMC,002938.000,A,4006.4914,N,08814.2223,W,0.62,319.61,251213,,,A*7C
$GPGGA,002939.000,4006.4913,N,08814.2219,W,1,05,2.1,243.5,M,-33.9,M,,0000*6D
$GPGLL,4006.4913,N,08814.2219,W,002939.000,A,A*4A
$GPGSA,A,3,22,12,14,25,31,,,,,,,,3.0,2.1,2.2*31
$GPGSV,3,1,09,31,80,252,19,14,51,067,32,32,50,306,20,25,37,068,24*7C
$GPGSV,3,2,09,22,27,150,26,01,23,282,,20,15,315,,12,12,037,19*71
$GPGSV,3,3,09,11,09,258,16*41
$GPRMC,002939.000,A,4006.4913,N,08814.2219,W,1.33,283.19,251213,,,A*7B
$GPGGA,002940.000,4006.4913,N,08814.2219,W,1,05,2.1,244.1,M,-33.9,M,,0000*60
$GPGLL,4006.4913,N,08814.2219,W,002940.000,A,A*44
$GPGSA,A,3,22,12,14,25,31,,,,,,,,3.0,2.1,2.2*31
$GPRMC,002940.000,A,4006.4913,N,08814.2219,W,1.79,271.96,251213,,,A*71
$GPGGA,002941.000,4006.4909,N,08814.2216,W,1,05,2.1,244.8,M,-33.9,M,,0000*6C
$GPGLL,4006.4909,N,08814.2216,W,002941.000,A,A*41
$GPGSA,A,3,22,12,14,25,31,,,,,,,,3.0,2.1,2.2*31
$GPRMC,002941.000,A,4006.4909,N,08814.2216,W,1.91,261.97,251213,,,A*72
$GPGGA,002942.000,4006.4906,N,08814.2209,W,1,05,2.1,245.7,M,-33.9,M,,0000*60
$GPGLL,4006.4906,N,08814.2209,W,002942.000,A,A*43
$GPGSA,A,3,22,12,14,25,31,,,,,,,,3.0,2.1,2.2*31
$GPRMC,002942.000,A,4006.4906,N,08814.2209,W,1.50,260.72,251213,,,A*77
$GPGGA,002943.000,4006.4905,N,08814.2207,W,1,05,2.1,245.9,M,-33.9,M,,0000*62
$GPGLL,4006.4905,N,08814.2207,W,002943.000,A,A*4F
$GPGSA,A,3,22,12,14,25,31,,,,,,,,3.0,2.1,2.2*31
$GPRMC,002943.000,A,4006.4905,N,08814.2207,W,1.35,280.73,251213,,,A*77
$GPGGA,002944.000,4006.4905,N,08814.2201,W,1,05,2.1,246.4,M,-33.9,M,,0000*6D
$GPGLL,4006.4905,N,08814.2201,W,002944.000,A,A*4E
$GPGSA,A,3,22,12,14,25,31,,,,,,,,3.0,2.1,2.2*31
$GPGSV,3,1,09,31,80,252,18,14,51,067,33,32,50,306,16,25,37,068,24*79
$GPGSV,3,2,09,22,27,150,26,01,23,282,,20,15,315,,12,12,037,18*70
$GPGSV,3,3,09,11,09,258,16*41
$GPRMC,002944.000,A,4006.4905,N,08814.2201,W,1.26,262.34,251213,,,A*7B
$GPGGA,002945.000,4006.4903,N,08814.2198,W,1,05,2.1,246.9,M,-33.9,M,,0000*64
$GPGLL,4006.4903,N,08814.2198,W,002945.000,A,A*4A
$GPGSA,A,3,22,12,14,25,31,,,,,,,,3.0,2.1,2.2*31
$GPRMC,002945.000,A,4006.4903,N,08814.2198,W,0.35,265.64,251213,,,A*7E
$GPGGA,002946.000,4006.4903,N,08814.2194,W,1,05,2.1,247.1,M,-33.9,M,,0000*62
$GPGLL,4006.4903,N,08814.2194,W,002946.000,A,A*45
$GPGSA,A,3,22,12,14,25,31,,,,,,,,3.0,2.1,2.2*31
$GPRMC,002946.000,A,4006.4903,N,08814.2194,W,0.45,331.13,251213,,,A*76
$GPGGA,002947.000,4006.4903,N,08814.2187,W,1,05,2.1,247.4,M,-33.9,M,,0000*64
$GPGLL,4006.4903,N,08814.2187,W,002947.000,A,A*46
$GPGSA,A,3,22,12,14,25,31,,,,,,,,3.0,2.1,2.2*31
$GPRMC,002947.000,A,4006.4903,N,08814.2187,W,0.44,261.39,251213,,,A*78
$GPGGA,002948.000,4006.4901,N,08814.2170,W,1,05,2.1,247.6,M,-33.9,M,,0000*63
$GPGLL,4006.4901,N,08814.2170,W,002948.000,A,A*43
$GPGSA,A,3,22,12,14,25,31,,,,,,,,3.0,2.1,2.2*31
$GPRMC,002948.000,A,4006.4901,N,08814.2170,W,1.88,104.33,251213,,,A*76
$GPGGA,002949.000,4006.4899,N,08814.2148,W,1,05,2.1,247.7,M,-33.9,M,,0000*68
$GPGLL,4006.4899,N,08814.2148,W,002949.000,A,A*49
$GPGSA,A,3,22,12,14,25,31,,,,,,,,3.0,2.1,2.2*31
$GPGSV,3,1,09,31,80,252,16,14,51,067,33,32,50,306,,25,37,068,24*70
$GPGSV,3,2,09,22,27,150,27,01,23,282,,20,15,315,,12,12,037,17*7E
$GPGSV,3,3,09,11,09,258,16*41
$GPRMC,002949.000,A,4006.4899,N,08814.2148,W,3.34,102.18,251213,,,A*76
$GPGGA,002950.000,4006.4899,N,08814.2130,W,1,04,7.6,247.5,M,-33.9,M,,0000*6E
$GPGLL,4006.4899,N,08814.2130,W,002950.000,A,A*4E
$GPGSA,A,3,22,12,14,25,,,,,,,,,8.1,7.6,2.9*30
$GPRMC,002950.000,A,4006.4899,N,08814.2130,W,3.61,98.50,251213,,,A*4F
$GPGGA,002951.000,4006.4898,N,08814.2117,W,1,04,7.6,247.1,M,-33.9,M,,0000*6F
$GPGLL,4006.4898,N,08814.2117,W,002951.000,A,A*4B
$GPGSA,A,3,22,12,14,25,,,,,,,,,8.1,7.6,2.9*30
$GPRMC,002951.000,A,4006.4898,N,08814.2117,W,3.57,103.95,251213,,,A*75
$GPGGA,002952.000,4006.4897,N,08814.2106,W,1,04,7.6,246.2,M,-33.9,M,,0000*61
$GPGLL,4006.4897,N,08814.2106,W,002952.000,A,A*47
$GPGSA,A,3,22,12,14,25,,,,,,,,,8.1,7.6,2.9*30
$GPRMC,002952.000,A,4006.4897,N,08814.2106,W,3.45,101.15,251213,,,A*70
$GPGGA,002953.000,4006.4898,N,08814.2093,W,1,04,7.6,245.0,M,-33.9,M,,0000*63
$GPGLL,4006.4898,N,08814.2093,W,002953.000,A,A*44
$GPGSA,A,3,22,12,14,25,,,,,,,,,8.1,7.6,2.9*30
$GPRMC,002953.000,A,4006.4898,N,08814.2093,W,3.45,99.67,251213,,,A*46
$GPGGA,002954.000,4006.4898,N,08814.2085,W,1,04,7.6,243.9,M,-33.9,M,,0000*6C
$GPGLL,4006.4898,N,08814.2085,W,002954.000,A,A*44
$GPGSA,A,3,22,12,14,25,,,,,,,,,8.1,7.6,2.9*30
$GPGSV,3,1,09,31,80,252,11,14,51,067,34,32,50,306,,25,37,068,24*70
$GPGSV,3,2,09,22,27,150,28,01,23,282,,20,15,315,,12,12,037,15*73
$GPGSV,3,3,09,11,09,258,16*41
$GPRMC,002954.000,A,4006.4898,N,08814.2085,W,3.14,100.39,251213,,,A*78
$GPGGA,002955.000,4006.4894,N,08814.2050,W,1,05,2.1,242.7,M,-33.9,M,,0000*65
$GPGLL,4006.4894,N,08814.2050,W,002955.000,A,A*41
$GPGSA,A,3,22,12,14,25,31,,,,,,,,3.0,2.1,2.2*31
$GPRMC,002955.000,A,4006.4894,N,08814.2050,W,5.29,100.24,251213,,,A*79
$GPGGA,002956.000,4006.4888,N,08814.2004,W,1,04,2.7,241.3,M,-33.9,M,,0000*6A
$GPGLL,4006.4888,N,08814.2004,W,002956.000,A,A*4E
$GPGSA,A,3,22,14,25,31,,,,,,,,,4.1,2.7,3.1*30
$GPRMC,002956.000,A,4006.4888,N,08814.2004,W,6.65,101.10,251213,,,A*7B
$GPGGA,002957.000,4006.4881,N,08814.1955,W,1,04,2.7,240.5,M,-33.9,M,,0000*6B
$GPGLL,4006.4881,N,08814.1955,W,002957.000,A,A*48
$GPGSA,A,3,22,14,25,31,,,,,,,,,4.1,2.7,3.1*30
$GPRMC,002957.000,A,4006.4881,N,08814.1955,W,6.52,99.20,251213,,,A*4A
$GPGGA,002958.000,4006.4878,N,08814.1926,W,1,04,2.7,239.7,M,-33.9,M,,0000*6A
$GPGLL,4006.4878,N,08814.1926,W,002958.000,A,A*45
$GPGSA,A,3,22,14,25,31,,,,,,,,,4.1,2.7,3.1*30
$GPRMC,002958.000,A,4006.4878,N,08814.1926,W,5.48,98.74,251213,,,A*4F
$GPGGA,002959.000,4006.4877,N,08814.1918,W,1,04,2.7,239.2,M,-33.9,M,,0000*6C
$GPGLL,4006.4877,N,08814.1918,W,002959.000,A,A*46
$GPGSA,A,3,22,14,25,31,,,,,,,,,4.1,2.7,3.1*30
$GPGSV,3,1,09,31,80,252,15,14,51,067,34,32,50,306,,25,37,068,24*74
$GPGSV,3,2,09,22,27,150,29,01,23,282,,20,15,315,,12,12,037,*76
$GPGSV,3,3,09,11,09,258,16*41
$GPRMC,002959.000,A,4006.4877,N,08814.1918,W,4.71,101.22,251213,,,A*75
$GPGGA,003000.000,4006.4879,N,08814.1928,W,1,04,2.7,238.7,M,-33.9,M,,0000*61
$GPGLL,4006.4879,N,08814.1928,W,003000.000,A,A*4F
$GPGSA,A,3,22,14,25,31,,,,,,,,,4.1,2.7,3.1*30
$GPRMC,003000.000,A,4006.4879,N,08814.1928,W,3.65,100.52,251213,,,A*78
$GPGGA,003001.000,4006.4881,N,08814.1933,W,1,04,2.7,238.1,M,-33.9,M,,0000*6B
$GPGLL,4006.4881,N,08814.1933,W,003001.000,A,A*43
$GPGSA,A,3,22,14,25,31,,,,,,,,,4.1,2.7,3.1*30
$GPRMC,003001.000,A,4006.4881,N,08814.1933,W,2.06,96.56,251213,,,A*4A
$GPGGA,003002.000,4006.4883,N,08814.1940,W,1,04,2.7,237.8,M,-33.9,M,,0000*68
$GPGLL,4006.4883,N,08814.1940,W,003002.000,A,A*46
$GPGSA,A,3,22,14,25,31,,,,,,,,,4.1,2.7,3.1*30
$GPRMC,003002.000,A,4006.4883,N,08814.1940,W,0.62,101.17,251213,,,A*75
$GPGGA,003003.000,4006.4884,N,08814.1949,W,1,04,2.7,237.5,M,-33.9,M,,0000*6A
$GPGLL,4006.4884,N,08814.1949,W,003003.000,A,A*49
$GPGSA,A,3,22,14,25,31,,,,,,,,,4.1,2.7,3.1*30
$GPRMC,003003.000,A,4006.4884,N,08814.1949,W,0.09,187.21,251213,,,A*7C
$GPGGA,003004.000,4006.4886,N,08814.1961,W,1,04,2.7,237.2,M,-33.9,M,,0000*62
$GPGLL,4006.4886,N,08814.1961,W,003004.000,A,A*46
$GPGSA,A,3,22,14,25,31,,,,,,,,,4.1,2.7,3.1*30
$GPGSV,3,1,09,31,80,252,18,14,51,067,35,32,50,306,,25,37,068,23*7F
$GPGSV,3,2,09,22,27,150,30,01,23,282,,20,15,315,,12,12,037,*7E
$GPGSV,3,3,09,11,09,258,18*4F
$GPRMC,003004.000,A,4006.4886,N,08814.1961,W,0.52,269.19,251213,,,A*75
$GPGGA,003005.000,4006.4890,N,08814.1982,W,1,04,2.7,236.8,M,-33.9,M,,0000*62
$GPGLL,4006.4890,N,08814.1982,W,003005.000,A,A*4D
$GPGSA,A,3,22,14,25,31,,,,,,,,,4.1,2.7,3.1*30
$GPRMC,003005.000,A,4006.4890,N,08814.1982,W,0.44,304.00,251213,,,A*7B
$GPGGA,003006.000,4006.4894,N,08814.2001,W,1,04,2.7,236.4,M,-33.9,M,,0000*68
$GPGLL,4006.4894,N,08814.2001,W,003006.000,A,A*4B
$GPGSA,A,3,22,14,25,31,,,,,,,,,4.1,2.7,3.1*30
$GPRMC,003006.000,A,4006.4894,N,08814.2001,W,0.33,319.19,251213,,,A*79
$GPGGA,003007.000,4006.4898,N,08814.2024,W,1,04,2.7,236.2,M,-33.9,M,,0000*64
$GPGLL,4006.4898,N,08814.2024,W,003007.000,A,A*41
$GPGSA,A,3,22,14,25,31,,,,,,,,,4.1,2.7,3.1*30
$GPRMC,003007.000,A,4006.4898,N,08814.2024,W,0.33,53.75,251213,,,A*44
$GPGGA,003008.000,4006.4901,N,08814.2047,W,1,04,2.7,236.1,M,-33.9,M,,0000*6C
$GPGLL,4006.4901,N,08814.2047,W,003008.000,A,A*4A
$GPGSA,A,3,22,14,25,31,,,,,,,,,4.1,2.7,3.1*30
$GPRMC,003008.000,A,4006.4901,N,08814.2047,W,0.47,106.03,251213,,,A*7C
$GPGGA,003009.000,4006.4903,N,08814.2063,W,1,04,2.7,235.9,M,-33.9,M,,0000*62
$GPGLL,4006.4903,N,08814.2063,W,003009.000,A,A*4F
$GPGSA,A,3,22,14,25,31,,,,,,,,,4.1,2.7,3.1*30
$GPGSV,3,1,09,31,80,252,20,14,51,067,36,32,50,306,,25,37,068,20*74
$GPGSV,3,2,09,22,27,150,31,01,23,282,,20,15,315,,12,12,037,*7F
$GPGSV,3,3,09,11,09,258,19*4E
$GPRMC,003009.000,A,4006.4903,N,08814.2063,W,0.20,166.36,251213,,,A*78
$GPGGA,003010.000,4006.4906,N,08814.2086,W,1,04,2.7,235.8,M,-33.9,M,,0000*65
$GPGLL,4006.4906,N,08814.2086,W,003010.000,A,A*49
$GPGSA,A,3,22,14,25,31,,,,,,,,,4.1,2.7,3.1*30
$GPRMC,003010.000,A,4006.4906,N,08814.2086,W,0.63,259.01,251213,,,A*72
$GPGGA,003011.000,4006.4909,N,08814.2106,W,1,04,2.7,235.6,M,-33.9,M,,0000*6C
$GPGLL,4006.4909,N,08814.2106,W,003011.000,A,A*4E
$GPGSA,A,3,22,14,25,31,,,,,,,,,4.1,2.7,3.1*30
$GPRMC,003011.000,A,4006.4909,N,08814.2106,W,0.92,270.05,251213,,,A*74
$GPGGA,003012.000,4006.4909,N,08814.2119,W,1,04,2.7,235.6,M,-33.9,M,,0000*61
$GPGLL,4006.4909,N,08814.2119,W,003012.000,A,A*43
$GPGSA,A,3,22,14,25,31,,,,,,,,,4.1,2.7,3.1*30
